{"type":"FeatureCollection","bbox":[135.632716,33.92476,136.173108,34.741252],"features":[{"type":"Feature","properties":{"P29_001":"29201","P29_002":"16","P29_003":"16002","P29_004":"16002","P29_005":"育英西中学校","P29_006":"三松4-637-1","P29_007":4,"label":"育英西中"},"geometry":{"type":"Point","coordinates":[135.728059,34.702839]}},{"type":"Feature","properties":{"P29_001":"29201","P29_002":"16","P29_003":"16002","P29_004":"16002","P29_005":"京西中学校","P29_006":"平松4-3-1","P29_007":3,"label":"京西中"},"geometry":{"type":"Point","coordinates":[135.776166,34.674315]}},{"type":"Feature","properties":{"P29_001":"29201","P29_002":"16","P29_003":"16002","P29_004":"16002","P29_005":"興東中学校","P29_006":"大柳生町4736","P29_007":3,"label":"興東中"},"geometry":{"type":"Point","coordinates":[135.922291,34.716285]}},{"type":"Feature","properties":{"P29_001":"29201","P29_002":"16","P29_003":"16002","P29_004":"16002","P29_005":"月ケ瀬中学校","P29_006":"月ケ瀬尾山2551","P29_007":3,"label":"月ケ瀬中"},"geometry":{"type":"Point","coordinates":[136.043383,34.710943]}},{"type":"Feature","properties":{"P29_001":"29201","P29_002":"16","P29_003":"16002","P29_004":"16002","P29_005":"三笠中学校","P29_006":"三条川西町3-1","P29_007":3,"label":"三笠中"},"geometry":{"type":"Point","coordinates":[135.806414,34.679787]}},{"type":"Feature","properties":{"P29_001":"29201","P29_002":"16","P29_003":"16002","P29_004":"16002","P29_005":"若草中学校","P29_006":"法蓮町1416-1","P29_007":3,"label":"若草中"},"geometry":{"type":"Point","coordinates":[135.831578,34.695147]}},{"type":"Feature","properties":{"P29_001":"29201","P29_002":"16","P29_003":"16002","P29_004":"16002","P29_005":"春日中学校","P29_006":"西木辻町67","P29_007":3,"label":"春日中"},"geometry":{"type":"Point","coordinates":[135.820079,34.673594]}},{"type":"Feature","properties":{"P29_001":"29201","P29_002":"16","P29_003":"16002","P29_004":"16002","P29_005":"帝塚山中学校","P29_006":"学園南3-1-3","P29_007":4,"label":"帝塚山中"},"geometry":{"type":"Point","coordinates":[135.750335,34.695701]}},{"type":"Feature","properties":{"P29_001":"29201","P29_002":"16","P29_003":"16002","P29_004":"16002","P29_005":"田原中学校","P29_006":"横田町199-1","P29_007":3,"label":"田原中"},"geometry":{"type":"Point","coordinates":[135.91224810945874,34.65987531707123]}},{"type":"Feature","properties":{"P29_001":"29201","P29_002":"16","P29_003":"16002","P29_004":"16002","P29_005":"登美ケ丘中学校","P29_006":"東登美ケ丘3-1059","P29_007":3,"label":"登美ケ丘中"},"geometry":{"type":"Point","coordinates":[135.762139,34.713616]}},{"type":"Feature","properties":{"P29_001":"29201","P29_002":"16","P29_003":"16002","P29_004":"16002","P29_005":"登美ケ丘北中学校","P29_006":"北登美ケ丘1-1-1","P29_007":3,"label":"登美ケ丘北中"},"geometry":{"type":"Point","coordinates":[135.752945,34.723393]}},{"type":"Feature","properties":{"P29_001":"29201","P29_002":"16","P29_003":"16002","P29_004":"16002","P29_005":"都祁中学校","P29_006":"針町2554","P29_007":3,"label":"都祁中"},"geometry":{"type":"Point","coordinates":[135.954477,34.606829]}},{"type":"Feature","properties":{"P29_001":"29201","P29_002":"16","P29_003":"16002","P29_004":"16002","P29_005":"都跡中学校","P29_006":"柏木町13","P29_007":3,"label":"都跡中"},"geometry":{"type":"Point","coordinates":[135.795998,34.676371]}},{"type":"Feature","properties":{"P29_001":"29201","P29_002":"16","P29_003":"16002","P29_004":"16002","P29_005":"都南中学校","P29_006":"南永井町98-1","P29_007":3,"label":"都南中"},"geometry":{"type":"Point","coordinates":[135.824524,34.648596]}},{"type":"Feature","properties":{"P29_001":"29201","P29_002":"16","P29_003":"16002","P29_004":"16002","P29_005":"東大寺学園中学校","P29_006":"山陵町1375","P29_007":4,"label":"東大寺学園中"},"geometry":{"type":"Point","coordinates":[135.788637,34.712922]}},{"type":"Feature","properties":{"P29_001":"29201","P29_002":"16","P29_003":"16002","P29_004":"16002","P29_005":"奈良育英中学校","P29_006":"法蓮町1000","P29_007":4,"label":"奈良育英中"},"geometry":{"type":"Point","coordinates":[135.824579,34.690647]}},{"type":"Feature","properties":{"P29_001":"29201","P29_002":"16","P29_003":"16002","P29_004":"16002","P29_005":"奈良教育大学附属中学校","P29_006":"法蓮町2058-2","P29_007":1,"label":"奈良教育大学附属中"},"geometry":{"type":"Point","coordinates":[135.81702185495328,34.69703675444414]}},{"type":"Feature","properties":{"P29_001":"29201","P29_002":"16","P29_003":"16002","P29_004":"16002","P29_005":"奈良女子中学校（休校中）","P29_006":"三条宮前町3-6","P29_007":4,"label":"奈良女子中学校（休校中）"},"geometry":{"type":"Point","coordinates":[135.814302,34.681037]}},{"type":"Feature","properties":{"P29_001":"29201","P29_002":"16","P29_003":"16002","P29_004":"16002","P29_005":"二名中学校","P29_006":"二名1-3667-2","P29_007":3,"label":"二名中"},"geometry":{"type":"Point","coordinates":[135.737697,34.706256]}},{"type":"Feature","properties":{"P29_001":"29201","P29_002":"16","P29_003":"16002","P29_004":"16002","P29_005":"飛鳥中学校","P29_006":"高畑町1475-1","P29_007":3,"label":"飛鳥中"},"geometry":{"type":"Point","coordinates":[135.849077,34.675288]}},{"type":"Feature","properties":{"P29_001":"29201","P29_002":"16","P29_003":"16002","P29_004":"16002","P29_005":"富雄中学校","P29_006":"三碓2-3-12","P29_007":3,"label":"富雄中"},"geometry":{"type":"Point","coordinates":[135.735864,34.689591]}},{"type":"Feature","properties":{"P29_001":"29201","P29_002":"16","P29_003":"16002","P29_004":"16002","P29_005":"富雄南中学校","P29_006":"藤ノ木台1-5-13","P29_007":3,"label":"富雄南中"},"geometry":{"type":"Point","coordinates":[135.75314,34.682314]}},{"type":"Feature","properties":{"P29_001":"29201","P29_002":"16","P29_003":"16002","P29_004":"16002","P29_005":"伏見中学校","P29_006":"西大寺野神町1-6-1","P29_007":3,"label":"伏見中"},"geometry":{"type":"Point","coordinates":[135.774083,34.695896]}},{"type":"Feature","properties":{"P29_001":"29201","P29_002":"16","P29_003":"16002","P29_004":"16002","P29_005":"平城西中学校","P29_006":"神功2-1","P29_007":3,"label":"平城西中"},"geometry":{"type":"Point","coordinates":[135.780443,34.719615]}},{"type":"Feature","properties":{"P29_001":"29201","P29_002":"16","P29_003":"16002","P29_004":"16002","P29_005":"平城中学校","P29_006":"秋篠町1333","P29_007":3,"label":"平城中"},"geometry":{"type":"Point","coordinates":[135.773749,34.70895]}},{"type":"Feature","properties":{"P29_001":"29201","P29_002":"16","P29_003":"16002","P29_004":"16002","P29_005":"平城東中学校","P29_006":"朱雀6-11","P29_007":3,"label":"平城東中"},"geometry":{"type":"Point","coordinates":[135.799969,34.715477]}},{"type":"Feature","properties":{"P29_001":"29201","P29_002":"16","P29_003":"16002","P29_004":"16002","P29_005":"柳生中学校","P29_006":"柳生町212-2","P29_007":3,"label":"柳生中"},"geometry":{"type":"Point","coordinates":[135.951898,34.731117]}},{"type":"Feature","properties":{"P29_001":"29201","P29_002":"16","P29_003":"99999","P29_004":"16002","P29_005":"富雄第三中学校","P29_006":"帝塚山南2-11-1","P29_007":3,"label":"富雄第三中"},"geometry":{"type":"Point","coordinates":[135.73283533278513,34.67563289680199]}},{"type":"Feature","properties":{"P29_001":"29201","P29_002":"16","P29_003":"99999","P29_004":"16002","P29_005":"奈良学園登美ヶ丘中学校","P29_006":"中登美ヶ丘3-15-1","P29_007":4,"label":"奈良学園登美ヶ丘中"},"geometry":{"type":"Point","coordinates":[135.74799705308467,34.72116739214574]}},{"type":"Feature","properties":{"P29_001":"29201","P29_002":"16","P29_003":"16003","P29_004":"16003","P29_005":"奈良女子大学附属中等教育学校","P29_006":"東紀寺町1-60-1","P29_007":1,"label":"奈良女子大学附属中等教育"},"geometry":{"type":"Point","coordinates":[135.837201,34.672792]}}]}